[
  {
    "company": "Sixt",
    "name": "Near Central Station",
    "address": "Prager Str. 2, 01069 Dresden",
    "maps_link": "https://www.google.com/maps/search/?api=1&query=Prager+Str.+2,+01069+Dresden",
    "phone": "+49 89 66060060",
    "hours": "Mo-Fr 06:00-22:00; Sa 08:00-12:00; So 09:00-18:00"
  },
  {
    "company": "Europcar",
    "name": "City (Strehlener Str.)",
    "address": "Strehlener Str. 5, 01069 Dresden",
    "maps_link": "https://www.google.com/maps/search/?api=1&query=Strehlener+Str.+5,+01069+Dresden",
    "phone": "+49 351 877320",
    "hours": "Mo-Fr 07:00-19:00; Sa 08:00-13:00; So 09:00-12:00"
  },
  {
    "company": "Enterprise",
    "name": "Friedrichstadt Branch",
    "address": "Friedrichstr. 65, 01067 Dresden",
    "maps_link": "https://www.google.com/maps/search/?api=1&query=Friedrichstrasse+65,+01067+Dresden",
    "phone": "+49 351 205770",
    "hours": "Mo-Fr 08:00-18:00; Sa 08:00-12:00; So 09:00-18:00"
  },
  {
    "company": "Avis",
    "name": "Downtown",
    "address": "Friedrichstr. 24, 01067 Dresden",
    "maps_link": "https://www.google.com/maps/search/?api=1&query=Friedrichstrasse+24,+01067+Dresden",
    "phone": "+49 351 4969613",
    "hours": "Mo-Fr 09:00-18:00; Sa 09:00-13:00; So 10:00-18:00"
  }
]
